district,cases,longitude,latitude
Mumbai,7053.00,72.8561288,19.0176169
Ahmadabad,3026.00,72.5715183,23.022475
Indore,1486.00,75.8069082,22.8354381
Pune,1388.00,74.0300122,18.6832564
New Delhi,1119.00,77.2090212,28.6139391
Thane,943.00,73.3708696,19.4540354
Chennai,906.00,80.254435,13.0587471
Jaipur,896.00,75.8998674,27.0216001
Surat,614.00,72.9932969,21.2628965
Hyderabad,574.00,78.4524591,17.4027421
Kolkata,539.00,88.363895,22.572646
Jodhpur,535.00,72.8988069,26.6838342
Bhopal,508.00,77.4242972,23.4884313
Agra,455.00,78.0195387,27.1281484
Central,410.00,87.879621,23.313875
Kurnool,386.00,78.1108279,15.6443434
South,320.00,88.5,27.18
Vadodara,289.00,73.1821623,22.2064606
Guntur,287.00,80.0087746,16.3905692
Krishna,246.00,80.7214417,16.6099914
East,244.00,88.61,27.32
Lucknow,228.00,80.8986502,26.7862676
North,225.00,88.55,27.52
Kanpur Nagar,205.00,80.2321313,26.4148245
North Twenty Four Pargan*,204.00,88.4029,22.6168
Nashik,197.00,74.0300122,20.16235
Kota,197.00,75.9927652,25.0869886
Kasaragod,181.00,75.201229,12.4386702
Saharanpur,181.00,77.4701972,29.8361115
Howrah,175.00,88.050979,22.5604385
Palghar,169.00,72.9932969,19.7867155
West,169.00,88.25,27.3333
Ajmer,150.00,74.7805192,26.1668245
Coimbatore,147.00,76.9558321,11.0168445
Gautam Buddha Nagar,141.00,77.6077865,28.338333
Nagpur,139.00,79.1999949,21.3170198
Ujjain,138.00,75.5276699,23.2755666
Bangalore,134.00,77.5945627,12.9715987
Tonk,133.00,75.6208088,26.1623706
Bandipore,127.00,74.6868815,34.5052269
Nagaur,118.00,74.0300122,27.185374
Kannur,115.00,75.6208088,11.9709472
Tiruppur,112.00,77.3783789,10.8985415
Bharatpur,111.00,77.2864879,27.0630827
Moradabad,109.00,78.7476208,29.0364263
Srinagar,108.00,74.9442585,34.1255413
Tirunelveli,101.00,77.4701972,8.7152836
Firozabad,100.00,78.5660852,27.1741367
Solapur,99.00,75.5276699,17.6956768
Kancheepuram,98.00,79.8745586,12.8755772
Munger,95.00,86.5400674,25.1960506
Meerut,94.00,77.8367282,28.9563893
Mysore,90.00,76.3637285,12.1873152
Jalandhar,89.00,75.5742467,31.218722
South Twenty Four Pargan*,88.00,88.4016041,22.1352378
Yavatmal,87.00,78.1108279,20.116952
South West,86.00,77.0346164,28.5928929
Sahibzada Ajit Singh Nag*,86.00,76.7567368,30.6496486
Jabalpur,85.00,80.0087746,23.3478153
Madurai,84.00,78.0195387,9.9532779
Sri Potti Sriramulu Nell*,84.00,79.9192702,14.2580848
Baramula,84.00,74.3587473,34.1595145
Suryapet,83.00,79.623924,17.143908
Anantnag,83.00,75.2479061,33.7049708
Dindigul,80.00,77.8367282,10.4747446
Vellore,80.00,78.9288242,12.8464805
Chittoor,80.00,78.8382644,13.4787911
Purba Medinipur,80.00,87.7763333,21.9372879
South East Delhi,79.00,77.261088,28.5630291
Ranchi,78.00,85.354965,23.4088088
Anand,74.00,72.6151169,22.3299068
Chandigarh,74.00,76.7794179,30.7333148
Y.S.R.,73.00,78.8382644,14.5767233
Shupiyan,72.00,74.8039205,33.7593643
Jaisalmer,71.00,70.8119953,26.9542164
West Nimar,70.00,75.8069082,21.90287
Belgaum,69.00,74.7805192,16.168081
Erode,68.00,77.4701972,11.5245781
Banswara,66.00,74.3118212,23.4350359
Patiala,64.00,76.317414,30.3098101
Ludhiana,63.00,75.9927652,30.7713229
Nizamabad,62.00,78.0940867,18.6725047
Anantapur,61.00,77.6016564,14.6823779
Prakasam,60.00,79.560344,15.348463
Rajkot,58.00,70.7168469,22.1096716
Mewat,58.00,77.0564464,28.0106916
Namakkal,57.00,78.1108279,11.2839847
West Godavari,56.00,81.3399414,16.9174181
Thiruvallur,55.00,80.0087746,13.2544335
Raisen,55.00,77.7842851,23.3301074
Thanjavur,54.00,79.2451149,10.6590488
Gurugram,54.00,76.8720961,28.360613
Gulbarga,53.00,76.6412712,17.4047323
Faridabad,53.00,77.3324425,28.3127745
Ghaziabad,53.00,77.5160788,28.7891841
Tiruchirappalli,52.00,78.5660852,11.034599
Viluppuram,50.00,79.2902133,11.9575509
Varanasi,50.00,82.9501558,25.3520828
Bulandshahr,50.00,78.0195387,28.4215341
Kupwara,49.00,74.123996,34.4319232
Dhar,48.00,75.1545381,22.4959294
Gandhinagar,48.00,72.6624,23.211
Khordha,47.00,85.4788065,20.130141
Bhavnagar,47.00,71.8571331,21.5092236
Shahdara,47.00,77.2919352,28.6893535
East Nimar,46.00,76.6412712,21.8802526
Jogulamba Gadwal,45.00,77.8168987,16.226169
Rohtas,45.00,84.0167423,25.0685878
Theni,44.00,77.4701972,9.9329832
Nagapattinam,44.00,79.7848422,10.7662359
Patna,44.00,85.023346,25.4839571
Rae Bareli,43.00,81.2528139,26.2144806
East Godavari,42.00,82.0407137,17.32125
Ahmadnagar,42.00,74.4056612,19.4555024
Jhunjhunun,42.00,75.5276699,28.0854611
Amritsar,42.00,74.8741045,31.7172683
Karur,41.00,78.1564432,10.8855072
Jalgaon,40.00,75.5276699,21.0395788
Jhalawar,40.00,76.3637285,24.3774539
Buxar,40.00,84.1435136,25.4987785
Akola,39.00,77.1024902,20.7003596
Vikarabad,38.00,74.6649277,14.9241821
Bhilwara,37.00,74.7805192,25.4283062
Bikaner,37.00,72.8988069,28.1411558
Hoshangabad,35.00,78.0195387,22.6446788
Nalanda,35.00,85.4788065,25.2621826
Panch Mahals,34.00,73.5594128,22.8011177
Palwal,34.00,77.3259878,28.1472852
South Andaman,33.00,92.6586401,11.7400867
Rangareddy,33.00,77.8367282,17.3891379
Virudhunagar,32.00,77.8367282,9.4217809
Salem,32.00,78.2020387,11.7344605
Satara,32.00,74.0300122,17.5780083
Bharuch,31.00,73.1821623,21.6519511
Thiruvarur,30.00,79.6348206,10.7667768
Hooghly,30.00,88.2461183,22.896256
Siwan,30.00,84.3962535,26.1689087
Bijnor,30.00,78.3842227,29.3720528
Bagalkot,29.00,75.6208088,16.1357079
Sangli,29.00,74.6868815,17.1706637
Shamli,29.00,77.2864879,29.4536916
Dehradun,29.00,77.973865,30.3839707
Amravati,28.00,77.6536125,21.1162181
Korba,28.00,82.6483442,22.5472368
Banas Kantha,28.00,71.7622481,24.3454739
Thoothukkudi,27.00,78.0195387,8.9063207
Cuddalore,27.00,79.6502105,11.611254
Warangal Urban,27.00,79.9192702,17.9744395
Aligarh,27.00,78.2020387,27.8841999
Barwani,26.00,75.0611147,21.835878
Hapur,26.00,78.0651931,28.7474998
Jammu,26.00,74.8570259,32.7266016
Dhule,25.00,74.6868815,21.0576553
Amroha,25.00,78.3387066,28.7715965
Sonipat,25.00,76.9182097,29.0523053
Pathankot,25.00,75.5975296,32.3142826
Ernakulam,24.00,76.5488232,10.071771
Malappuram,24.00,76.1783739,11.1111928
Kozhikode,24.00,75.7803022,11.5817379
Buldana,24.00,76.1841701,20.5292147
Dewas,24.00,76.3637285,22.6980312
Jhajjar,24.00,76.6874701,28.6175726
Idukki,23.00,77.1024902,9.9188973
Medchal-Malkajgiri,23.00,78.5855965,17.4139017
Visakhapatnam,23.00,82.7347142,17.7240124
Sant Kabir Nagar,23.00,83.0361376,26.7671755
Basti,23.00,82.7629893,26.8139844
Shahid Bhagat Singh Nagar,23.00,76.0391909,31.0912954
Bangalore Rural,22.00,77.6077865,13.2846993
Dakshina Kannada,21.00,75.2479061,12.8437814
Rampur,21.00,79.1096901,28.8825255
Kollam,20.00,76.8720961,8.9968866
Tiruvannamalai,20.00,79.1096901,12.4917999
Nirmal,20.00,74.4848003,14.4543564
Adilabad,20.00,78.531961,19.6640542
Bhadrak,20.00,86.6207943,21.0126441
Botad,20.00,71.663622,22.1722509
Dausa,20.00,76.3637285,26.790915
Sitapur,20.00,80.8986502,27.5325072
Udhampur,20.00,75.2479061,32.8262839
Badgam,20.00,74.6400432,33.9348549
Pathanamthitta,19.00,76.964306,9.2600767
Karimnagar,19.00,79.2902133,18.5962386
Jajapur,19.00,86.3326058,20.8341019
Arvalli,19.00,73.3708696,23.5204911
Chittaurgarh,19.00,74.6229699,24.8829177
Thiruvananthapuram,18.00,77.1024902,8.5306979
Ramanathapuram,18.00,78.7022678,9.4071343
Kottayam,18.00,76.5221531,9.5915668
Mandya,18.00,76.7336521,12.5643952
Chikkaballapura,18.00,74.8301811,14.3704097
Kaimur (bhabua),18.00,83.6055732,25.0426227
Gopalganj,18.00,84.43655,26.4831584
Muzaffarnagar,18.00,77.8367282,29.5056848
Panchkula,18.00,77.0564464,30.657625
Nalgonda,17.00,79.1999949,17.1882998
Patan,17.00,71.8571331,23.7148742
Kanniyakumari,16.00,77.3324425,8.32352
Bidar,16.00,77.5199079,17.9103939
Baleshwar,16.00,86.6611083,21.3468696
Morena,16.00,77.8367282,26.3698079
Budaun,16.00,78.9288242,28.1299432
Baghpat,16.00,77.3324425,29.0467525
Una,16.00,76.2247366,31.5601504
Paschim Medinipur,15.00,87.3810727,22.4080376
Palakkad,14.00,76.5488232,10.9512736
Hingoli,14.00,77.1024902,19.5781428
Ratlam,14.00,75.0611147,23.5099971
Sambhal,14.00,78.5673008,28.4519252
Ambala,14.00,76.964306,30.286157
Tarn Taran,14.00,74.8741045,31.3604724
Leh(ladakh),14.00,77.5770535,34.1525864
Ganderbal,14.00,75.0143824,34.3298401
Thrissur,13.00,76.3637285,10.4145968
Bellary,13.00,76.5488232,15.0950024
Chhota Udepur,13.00,73.9359821,22.2844065
Vidisha,13.00,77.8367282,23.943041
Darjiling,13.00,88.362785,26.928696
Panipat,13.00,76.964306,29.2852774
Mansa,13.00,75.4344727,29.9871437
Sivaganga,12.00,78.5660852,9.972577
Mahabubnagar,12.00,78.1108279,16.3841436
Kamareddy,12.00,78.3369523,18.3204832
Narmada,12.00,73.5594128,21.8757175
Agar Malwa,12.00,76.0094637,23.7137337
East Khasi Hills,12.00,91.7538817,25.3681768
Pali,12.00,73.5594128,25.7543479
Dhaulpur,12.00,77.6536125,26.7253701
Mathura,12.00,77.6536125,27.6511041
Churu,12.00,74.4056612,28.3253838
Kapurthala,12.00,75.294569,31.3655511
Kolhapur,11.00,74.123996,16.5764489
Mahisagar,11.00,73.5594128,23.1711262
Mahesana,11.00,72.4332183,23.3146929
Bokaro,11.00,85.971322,23.6635265
Bhojpur,11.00,84.5222189,25.466155
Begusarai,11.00,86.1751759,25.5184039
Hanumangarh,11.00,74.4994517,29.1546832
Hoshiarpur,11.00,75.8069082,31.6478976
Kulgam,11.00,74.9208772,33.5335455
Uttara Kannada,10.00,74.6868815,14.7937065
Latur,10.00,76.7336521,18.4327517
Sundargarh,10.00,84.6897495,22.0571189
Auraiya,10.00,79.4703885,26.6869797
Hardwar,10.00,78.0195387,29.8876368
Perambalur,9.00,78.9288242,11.2265767
The Nilgiris,9.00,76.7336521,11.4916043
Dharwad,9.00,75.2479061,15.3778395
Mandsaur,9.00,75.2479061,24.0857662
Nainital,9.00,79.4703885,29.2793505
Solan,9.00,76.9182097,31.0497662
Gadag,8.00,75.6208088,15.4026326
Ratnagiri,8.00,73.3708696,17.2477549
Khammam,8.00,80.6326916,17.6350961
Aurangabad,8.00,75.1545381,19.8910826
Udaipur,8.00,73.6536209,24.1980766
Azamgarh,8.00,83.0790865,26.0647043
Sawai Madhopur,8.00,76.3637285,26.2357902
Jorhat,8.00,94.315422,26.8254706
Alwar,8.00,76.6412712,27.4640886
Bahraich,8.00,81.4278984,27.7525271
Ariyalur,7.00,79.2902133,11.2398619
Sangareddy,7.00,78.0815627,17.6140077
Kumuram Bheem,7.00,79.2930312,19.361899
Nandurbar,7.00,74.123996,21.7468548
Paschim Bardhaman,7.00,87.863419,23.232513
Darbhanga,7.00,86.0121573,26.0810577
Kannauj,7.00,79.6951103,27.0296784
Bareilly,7.00,79.4703885,28.5425638
Pulwama,7.00,75.0143824,33.9818889
Navsari,6.00,73.1349605,20.7694591
Raipur,6.00,81.7787021,21.1797375
Dohad,6.00,74.123996,22.8596159
Kheda,6.00,72.9932969,22.9250506
Shajapur,6.00,76.5950555,23.4185828
Kachchh,6.00,69.8597406,23.7337326
Dungarpur,6.00,73.9359821,23.7662976
Gaya,6.00,84.8567932,24.721344
Bhagalpur,6.00,86.9824288,25.3478004
Ghazipur,6.00,83.5070203,25.6135068
Saran,6.00,84.8567932,25.8559698
Gwalior,6.00,78.2020387,26.0282573
Kalimpong,6.00,88.466667,27.066668
Mahrajganj,6.00,83.5070203,27.1177463
Sikar,6.00,75.0611147,27.5766835
Karnal,6.00,76.9182097,29.7819925
Sangrur,6.00,75.8069082,30.3901443
Faridkot,6.00,74.7583351,30.6769462
Chamba,6.00,76.1783739,32.7573487
Alappuzha,5.00,76.4100267,9.4126239
Tumkur,5.00,76.6412712,13.3709627
North Goa,5.00,73.9830029,15.5163112
Medak,5.00,78.1108279,17.8716468
Jayashankar Bhupalpally,5.00,79.8634855,18.4292622
Srikakulam,5.00,84.0167423,18.617683
Valsad,5.00,73.1349605,20.4924644
Jhabua,5,74.6868815,22.9159073
Nadia,5,88.556531,23.4709656
Sagar,5,78.8382644,23.9259385
Jaunpur,5,83.0062252,25.5906244
Sheopur,5,76.9182097,25.7309158
Kamrup Metropolitan,5,91.637215,26.0794316
Dhubri,5,89.9253233,26.1359238
Madhubani,5,86.0711661,26.3482938
Bongaigaon,5,90.6393702,26.3707514
Purba Champaran,5,84.8567932,26.6098139
Sitamarhi,5,85.520024,26.6321781
Pashchim Champaran,5,84.3542049,27.1543104
Mainpuri,5,79.1096901,27.2177405
Shrawasti,5,82.036461,27.5035427
Moga,5,75.2479061,30.6874426
Rupnagar,5,76.5025742,31.1413825
Kangra,5,76.3637285,32.0668524
Puducherry,4,79.7736306,11.919336
Udupi,4,74.8741045,13.5401195
Davanagere,4,75.9927652,14.3317707
Bhadradri Kothagudem,4,74.6758388,14.7430452
Osmanabad,4,76.1783739,18.2069636
Mumbai Suburban,4,72.8751786,19.1538231
Chhindwara,4,78.8382644,22.0458752
Purba Barddhaman,4,87.8512155,23.2409261
Nawada,4,85.520024,24.7425589
Jehanabad,4,84.981754,25.1515827
Arwal,4,84.6688348,25.1643264
Lakhisarai,4,86.1344697,25.1860504
Allahabad,4,81.9534815,25.348094
Goalpara,4,90.563609,26.0875755
Jalpaiguri,4,88.7688681,26.6834523
Kheri,4,80.7787163,27.9462395
Bhiwani,4,75.9927652,28.7751693
Rohtak,4,76.5025742,28.873566
Udham Singh Nagar,4,79.5153773,28.9609653
Hisar,4,75.8069082,29.1202908
Sirsa,4,74.8741045,29.5610645
Muktsar,4,74.4994517,30.2391179
Gurdaspur,4,75.2479061,31.9400094
Samba,4,75.0143824,32.5772702
Rajouri,4,74.3153132,33.3717153
Kargil,4,76.2710833,34.2620449
Wayanad,3,76.1319953,11.6853575
Jagtial,3,74.2942208,14.9992476
Sindhudurg,3,73.5594128,16.3492193
Jangaon,3,79.1517868,17.7226509
Rajanna Sircilla,3,78.8092392,18.38895
Jalna,3,75.9927652,19.6807088
Chandrapur,3,79.560344,20.2095231
Gir Somnath,3,70.7168469,21.0119385
Porbandar,3,69.8120894,21.6778063
Surajpur,3,82.820974,23.5027196
Sabar Kantha,3,72.9932969,23.8476704
Hazaribagh,3,85.354965,23.9787306
Garhwa,3,83.6773928,24.1084558
Palamu,3,84.1857115,24.1286106
Satna,3,80.8986502,24.5339177
Banka,3,86.9126261,24.8931844
Mirzapur,3,82.6483442,25.0072479
Shivpuri,3,77.7452081,25.3376366
Banda,3,80.543845,25.4520223
Vaishali,3,85.354965,25.6838206
Morigaon,3,92.2630393,26.2599654
Sultanpur,3,82.12784,26.2977026
Nalbari,3,91.3276422,26.3660495
Karauli,3,77.1024902,26.4904487
Etawah,3,79.1096901,26.8458148
Etah,3,78.792953,27.5172789
Kasganj,3,78.792953,27.7951547
Pilibhit,3,80.0087746,28.5834896
Yamunanagar,3,77.2864879,30.1820888
Peddapalli,2,74.3455506,14.5934363
South Goa,2,74.123996,15.11766
Nagarkurnool,2,78.3102489,16.4939417
Warangal (Rural),2,79.5540163,17.9971817
Kalahandi,2,83.1649001,19.9137363
Washim,2,77.1024902,20.1390129
Kendrapara,2,86.6611083,20.5848321
The Dangs,2,73.7007088,20.8253781
Betul,2,77.7452081,21.9671753
Jamnagar,2,70.1455805,22.4039763
Simdega,2,84.6897495,22.6275654
Shahdol,2,81.4278984,23.6212786
Dhanbad,2,86.4996546,23.8189217
Birbhum,2,87.6186379,23.8401675
Jamtara,2,86.9423801,23.9709099
Rewa,2,81.6035062,24.763474
Kaushambi,2,81.4278984,25.5064864
Barmer,2,71.3824374,25.7598589
Madhepura,2,86.9423801,25.8674343
Pratapgarh,2,81.9452981,25.8973038
Hamirpur,2,80.1526271,25.9548043
Jalaun,2,79.4703885,26.1270922
Golaghat,2,94.0907019,26.318524
Hardoi,2,80.1875065,27.2978965
Jind,2,76.3637285,29.3612936
Kaithal,2,76.3637285,29.7252593
Garhwal,2,78.8382644,29.8687682
Kurukshetra,2,76.7798172,29.9952648
Bathinda,2,75.0611147,30.1252438
Barnala,2,75.4810786,30.398872
Sirmaur,2,77.4701972,30.5628455
Fatehgarh Sahib,2,76.4100267,30.6810924
Firozpur,2,74.8741045,31.0026012
Shimla,2,77.6536125,31.1231339
Pudukkottai,1,78.9288242,10.3379132
Mahe,1,75.5424843,11.7002703
Dharmapuri,1,78.2020387,12.0933225
Kodagu,1,75.8069082,12.3374942
North  & Middle Andaman,1,92.9,12.92
Chitradurga,1,76.5488232,14.182307
Mahabubabad,1,80.0036199,17.602625
Siddipet,1,78.8519601,18.1017996
Koraput,1,82.7347142,18.8560564
Mancherial,1,79.459138,18.875595
Nanded,1,77.3783789,18.9437871
Bid,1,75.7563,18.9892
Parbhani,1,76.6412712,19.2644096
Puri,1,85.7256372,19.8510251
Jagatsinghapur,1,86.1706221,20.2548998
Dadra & Nagar Haveli,1,72.9667254,20.3228778
Cuttack,1,85.7256372,20.5167789
Dhenkanal,1,85.4375574,20.8424388
Rajnandgaon,1,80.8986502,21.1346125
Durg,1,81.4278984,21.1622986
Tapi,1,73.6065223,21.2788724
Gondiya,1,80.1875065,21.2835345
Burhanpur,1,76.3637285,21.3900652
Jharsuguda,1,83.8897057,21.7917978
Harda,1,77.1024902,22.1983884
Surendranagar,1,71.6673352,22.7738938
Dindori,1,81.0754657,22.8457457
Morbi,1,70.9071236,22.8652145
Gomati,1,91.637215,23.5166711
Aizawl,1,92.8976254,23.8789176
North Tripura,1,92.2630393,24.0797139
Giridih,1,86.0937312,24.2841482
Deoghar,1,86.6611083,24.392582
Hailakandi,1,92.5792482,24.4548506
Kodarma,1,85.5933645,24.4676805
Ashoknagar,1,77.7318495,24.5775148
Cachar,1,92.8577105,24.7821253
Imphal West,1,93.8858955,24.7827837
Imphal East,1,93.9368439,24.8170111
Tikamgarh,1,78.9288242,24.9642496
Baran,1,76.7336521,24.9698841
Sheikhpura,1,85.8895551,25.0847746
Rajsamand,1,73.7477857,25.2234975
Bhadohi,1,82.4319405,25.326373
Jhansi,1,79.1096901,25.5394351
Kohima,1,94.1104449,25.7470658
Purnia,1,87.4752551,25.7771391
South Salmara-mankachar,1,90.01805,25.90542
Mau,1,83.5070203,25.9904256
Araria,1,87.3016132,26.1108142
Kamrup,1,91.5983959,26.3160819
Unnao,1,80.543845,26.5761015
Faizabad,1,81.9534815,26.6630286
Gorakhpur,1,83.336188,26.7346743
Bara Banki,1,81.2518833,26.995506
Gonda,1,81.9534815,27.0374187
Lakhimpur,1,94.1513764,27.2063587
Balrampur,1,82.3017728,27.4308339
Shahjahanpur,1,79.8296743,27.8295801
Lohit,1,96.1739116,27.9039651
Fatehabad,1,75.6208088,29.6455185
Almora,1,79.2902133,29.8150205
Kathua,1,75.5173293,32.3865021
Reasi,1,74.8364724,33.0804393
Ramban,1,75.201229,33.3048817
Kishtwar,1,75.8998674,33.5193589
Nicobars,0,93.7841503,7.1205395
Lakshadweep,0,72.7846336,10.3280265
Karaikal,0,79.7960523,10.9337465
Chamarajanagar,0,77.2864879,12.0526441
Ramanagara,0,77.4701972,12.6002557
Krishnagiri,0,78.0195387,12.6256834
Hassan,0,76.1783739,13.0752578
Kolar,0,78.2020387,13.1770316
Chikmagalur,0,75.6208088,13.4045068
Yanam,0,78.925532,13.801001
Shimoga,0,75.568101,13.9299299
Haveri,0,75.4344727,14.6610266
Koppal,0,76.1783739,15.6218951
Raichur,0,76.6412712,15.9268086
Wanaparthy,0,78.0621824,16.3623118
Bijapur,0,75.8998674,16.6147627
Yadgir,0,77.1442251,16.7625516
Yadadri Bhuvanagiri,0,79.043,17.6437
Sukma,0,81.2518833,18.1334245
Malkangiri,0,81.9534815,18.1640803
Vizianagaram,0,83.336188,18.4058938
Dakshin Bastar Dantewada,0,81.3839326,18.8456296
Bastar,0,81.9534815,19.1071317
Rayagada,0,83.4163226,19.171209
Gajapati,0,84.1857115,19.1912221
Gadchiroli,0,80.2767327,19.4968732
Nabarangapur,0,82.3017728,19.5001322
Ganjam,0,84.6897495,19.5859712
Narayanpur,0,81.2471973,19.7195568
Kondagaon,0,81.6035062,19.8469685
Kandhamal,0,84.0167423,20.1342042
Nayagarh,0,85.023346,20.1654348
Gariaband,0,82.3017728,20.2571359
Uttar Bastar Kanker,0,81.4980353,20.2641635
Daman,0,72.8574558,20.4012577
Nuapada,0,82.605118,20.5070532
Dhamtari,0,81.7787021,20.6118302
Baudh,0,84.1435136,20.6607447
Balangir,0,83.1649001,20.6722671
Diu,0,70.9249578,20.72158
Balod,0,81.2518833,20.7750288
Wardha,0,78.5660852,20.8049123
Anugul,0,84.8567932,20.9211366
Subarnapur,0,83.804868,20.9338113
Bhandara,0,79.8296743,21.0736452
Mahasamund,0,82.605118,21.1705408
Bargarh,0,83.5070203,21.2550301
Junagadh,0,70.3360691,21.3321222
Amreli,0,71.2874209,21.4445492
Sambalpur,0,84.1857115,21.4698302
Debagarh,0,84.8567932,21.4917636
Kendujhar,0,85.684578,21.5151196
Balodabazar,0,82.1591963,21.6569173
Bemetara,0,81.5596427,21.6894372
Balaghat,0,80.365865,21.8603434
Janjgir - Champa,0,82.4752757,21.9705529
Raigarh,0,83.336188,22.0077536
Mayurbhanj,0,86.4187308,22.0086978
Kabeerdham,0,81.2518833,22.0990944
Devbhumi Dwarka,0,69.3831079,22.1232327
Bilaspur,0,82.12784,22.1437294
Mungeli,0,81.734942,22.1716221
Alirajpur,0,74.3558148,22.3059709
Lawngtlai,0,92.6983868,22.311443
Pashchimi Singhbhum,0,85.4375574,22.3650858
Jhargram,0,86.9974385,22.4549909
Seoni,0,79.560344,22.4707641
Purbi Singhbhum,0,86.4996546,22.4866756
Saiha,0,92.979269,22.489734
Mandla,0,80.543845,22.626173
Jashpur,0,83.8473015,22.7874503
Saraikela-kharsawan,0,86.0121573,22.8561261
Lunglei,0,92.6983868,22.8830994
Sehore,0,77.1024902,22.9472931
Narsimhapur,0,79.1923266,22.9473179
Surguja,0,83.1649001,22.9494079
Anuppur,0,81.7787021,23.0729222
Khunti,0,85.2774207,23.0797595
Bankura,0,87.0624261,23.164543
Gumla,0,84.5222189,23.1920025
South Tripura,0,91.5596117,23.2317493
Serchhip,0,92.8976254,23.3080729
Puruliya,0,86.3616405,23.3322026
Koriya,0,82.3885783,23.3875499
Lohardaga,0,84.6479124,23.4337504
Champhai,0,93.1779659,23.4454049
Umaria,0,81.0754657,23.6013747
Sepahijala,0,91.3276422,23.6148176
Mamit,0,92.539603,23.6473811
Ramgarh,0,85.56121,23.6523678
Katni,0,80.365865,23.7473807
Latehar,0,84.3542049,23.7555791
Dhalai,0,91.9099238,23.8466982
Rajgarh,0,76.7336521,23.8508581
Damoh,0,79.4703885,23.8768424
Khowai,0,91.637215,23.8973965
West Tripura,0,91.4048249,23.899682
Singrauli,0,82.3885783,24.144324
Chatra,0,84.8567932,24.1526331
Kolasib,0,92.7381672,24.1670379
Unakoti,0,92.027319,24.1780881
Chandel,0,94.1513764,24.1827492
Sidhi,0,81.7787021,24.2071092
Murshidabad,0,88.2461183,24.2290007
Pherzawl,0,93.1892637,24.263712
Dumka,0,87.2488088,24.2684794
Churachandpur,0,93.2583626,24.2993576
Tengnoupal,0,94.1481775,24.383792
Sonbhadra,0,82.9931607,24.4570238
Neemuch,0,75.2479061,24.4571999
Panna,0,80.1875065,24.4892018
Kakching,0,93.9830529,24.496869
Bishnupur,0,93.7841503,24.524521
Thoubal,0,93.9674371,24.5435506
Pakur,0,87.658113,24.55368
Karimganj,0,92.3813621,24.6005479
Guna,0,77.2864879,24.6455069
Chhatarpur,0,79.560344,24.728683
Sirohi,0,72.8042797,24.7467147
Jamui,0,86.3376761,24.764688
Godda,0,87.3016132,24.7850676
Jiribam,0,93.1538899,24.7864347
Noney,0,93.6167146,24.8546947
Kamjong,0,94.5134629,24.8570444
Ukhrul,0,94.479976,24.9320611
Tamenglong,0,93.5003454,24.9581928
Sahibganj,0,87.6186379,24.9801917
Chitrakoot,0,81.0754657,25.1093692
Jalor,0,72.1416132,25.1256823
Kangpokpi,0,93.969963,25.1519197
Maldah,0,88.2461183,25.1785773
Chandauli,0,83.2934086,25.1793639
Hojai,0,93.0169457,25.2227338
East Jaintia Hills,0,92.4999918,25.3100768
Senapati,0,94.1513764,25.3203312
South West Khasi Hills,0,91.2506002,25.3258908
South Garo Hills,0,90.563609,25.3300969
Dima Hasao,0,93.0175712,25.3478004
Dakshin Dinajpur,0,88.556531,25.3715308
Mahoba,0,79.8296743,25.4041196
Khagaria,0,86.7013894,25.4838168
West Jaintia Hills,0,92.341887,25.5021272
Peren,0,93.7390658,25.5124772
Bundi,0,75.8998674,25.5420427
Katihar,0,87.6186379,25.5488415
West Khasi Hills,0,91.2891036,25.5624625
East Garo Hills,0,90.5257823,25.5671692
West Garo Hills,0,90.2244662,25.5679372
Kishanganj,0,86.947388,25.6843055
Datia,0,78.5660852,25.6845378
Phek,0,94.43879,25.7374645
Samastipur,0,85.8895551,25.7470658
Dimapur,0,93.7841503,25.7558765
Kiphire,0,94.8520636,25.8187605
Ballia,0,84.1857115,25.8307174
Ribhoi,0,91.985621,25.8431574
Karbi Anglong East,0,93.4377584,25.8456764
Fatehpur,0,80.8986502,25.8499808
Saharsa,0,86.6207943,25.860336
North Garo Hills,0,90.4879916,25.8986758
Uttar Dinajpur,0,88.050979,25.9810393
Zunheboto,0,94.5211935,26.0182111
Muzaffarpur,0,85.520024,26.066674
Wokha,0,94.19234,26.2168164
Tuensang,0,94.8105955,26.2446658
Supaul,0,86.8220341,26.2899113
Nagaon,0,92.6983868,26.2996872
Amethi,0,81.647344,26.3173951
Barpeta,0,90.9820668,26.3215985
Cooch Behar,0,89.3226954,26.3233527
Mokokchung,0,94.5211935,26.3954215
Deoria,0,83.804868,26.4270039
Bhind,0,78.7476208,26.4450034
Darrang,0,92.027319,26.4522876
Ambedkar Nagar,0,82.6915429,26.4683952
Longleng,0,94.819664,26.4901992
Kokrajhar,0,90.2244662,26.5136208
Sheohar,0,85.2942313,26.5145872
Kanpur Dehat,0,79.8296743,26.526707
Alipurduar,0,89.4135357,26.6476479
Chirang,0,90.6393702,26.6539048
Sonitpur,0,92.8577105,26.6738851
Udalguri,0,91.9099238,26.6897159
Baksa,0,91.5983959,26.6935448
Biswanath,0,93.1478514,26.7266632
Mon,0,94.976654,26.8038362
Kushinagar,0,83.9744262,26.810152
Longding,0,95.32675,26.8644
Tirap,0,95.5407299,26.9942703
Sivasagar,0,94.645035,27.0030804
Papum Pare,0,93.7029002,27.1719019
Siddharthnagar,0,82.820974,27.2715633
West District,0,88.375283,27.304312
West Kameng,0,92.302446,27.3427633
Dibrugarh,0,95.1015225,27.4095733
East Kameng,0,93.0175712,27.4231261
Farrukhabad,0,79.4703885,27.4313399
Mahamaya Nagar,0,78.0195387,27.4985811
Tinsukia,0,95.6457951,27.529131
Lalitpur,0,85.3342973,27.5419673
Dhemaji,0,94.7691586,27.608731
Lower Subansiri,0,93.8391557,27.6169349
Tawang,0,91.7538817,27.632451
Namsai,0,95.8644018,27.6692115
Changlang,0,96.642433,27.7421763
Upper Subansiri,0,94.3359635,27.786802
Anjaw,0,96.348056,27.925
East Siang,0,95.1432068,28.1097051
Mahendragarh,0,76.2247366,28.1124989
Lower Dibang Valley,0,95.8431018,28.1428728
West Siang,0,94.7484518,28.147254
Kra Daadi,0,94.12288,28.15285
Rewari,0,76.5488232,28.2828311
Charkhi Dadri,0,76.2174935,28.6143097
Upper Siang,0,95.2266675,28.7588781
Upper Dibang Valley,0,96.1526985,28.8128767
Champawat,0,80.0087746,29.3209432
Ganganagar,0,73.5594128,29.4018554
Bageshwar,0,79.8744836,29.9987011
Pithoragarh,0,80.365865,30.0815485
Chamoli,0,79.560344,30.2937439
Tehri Garhwal,0,78.5660852,30.3011858
Fazilka,0,74.123996,30.3730198
Rudraprayag,0,79.0645056,30.4807165
Uttarkashi,0,78.4751945,30.9286572
Mandi,0,76.9182097,31.5892006
Kinnaur,0,78.4751945,31.6509576
Kullu,0,77.4701972,31.8246483
Lahul & Spiti,0,77.3783789,32.6192107
Doda,0,75.6208088,33.0469201
Punch,0,74.0924685,33.7669876
Charaideo,0,94.7481,26.9330 
Kurung Kumey,0,93.35,﻿27.9
Majuli,0,95.726033,27.901381 
